<rows><row>
    <id>10078</id>
    <name>Acrelândia</name>
    <state>
        <state_id>2012</state_id>
        <state_code>AC</state_code>
        <state_name>Acre</state_name>
    </state>
    <country>
        <country_id>31</country_id>
        <country_code>BR</country_code>
        <country_name>Brazil</country_name>
    </country>
    <latitude>-9.98045</latitude>
    <longitude>-66.84388</longitude>
    <wikiDataId>Q507567</wikiDataId>
</row><row>
    <id>10428</id>
    <name>Assis Brasil</name>
    <state>
        <state_id>2012</state_id>
        <state_code>AC</state_code>
        <state_name>Acre</state_name>
    </state>
    <country>
        <country_id>31</country_id>
        <country_code>BR</country_code>
        <country_name>Brazil</country_name>
    </country>
    <latitude>-10.88334</latitude>
    <longitude>-70.01314</longitude>
    <wikiDataId>Q742227</wikiDataId>
</row><row>
    <id>10774</id>
    <name>Brasiléia</name>
    <state>
        <state_id>2012</state_id>
        <state_code>AC</state_code>
        <state_name>Acre</state_name>
    </state>
    <country>
        <country_id>31</country_id>
        <country_code>BR</country_code>
        <country_name>Brazil</country_name>
    </country>
    <latitude>-11.01611</latitude>
    <longitude>-68.74806</longitude>
    <wikiDataId>Q899406</wikiDataId>
</row><row>
    <id>10819</id>
    <name>Bujari</name>
    <state>
        <state_id>2012</state_id>
        <state_code>AC</state_code>
        <state_name>Acre</state_name>
    </state>
    <country>
        <country_id>31</country_id>
        <country_code>BR</country_code>
        <country_name>Brazil</country_name>
    </country>
    <latitude>-9.57859</latitude>
    <longitude>-68.17197</longitude>
    <wikiDataId>Q1793226</wikiDataId>
</row><row>
    <id>11091</id>
    <name>Capixaba</name>
    <state>
        <state_id>2012</state_id>
        <state_code>AC</state_code>
        <state_name>Acre</state_name>
    </state>
    <country>
        <country_id>31</country_id>
        <country_code>BR</country_code>
        <country_name>Brazil</country_name>
    </country>
    <latitude>-10.48782</latitude>
    <longitude>-67.84831</longitude>
    <wikiDataId>Q1750439</wikiDataId>
</row><row>
    <id>11498</id>
    <name>Cruzeiro do Sul</name>
    <state>
        <state_id>2012</state_id>
        <state_code>AC</state_code>
        <state_name>Acre</state_name>
    </state>
    <country>
        <country_id>31</country_id>
        <country_code>BR</country_code>
        <country_name>Brazil</country_name>
    </country>
    <latitude>-7.62759</latitude>
    <longitude>-72.67756</longitude>
    <wikiDataId>Q941136</wikiDataId>
</row><row>
    <id>11713</id>
    <name>Epitaciolândia</name>
    <state>
        <state_id>2012</state_id>
        <state_code>AC</state_code>
        <state_name>Acre</state_name>
    </state>
    <country>
        <country_id>31</country_id>
        <country_code>BR</country_code>
        <country_name>Brazil</country_name>
    </country>
    <latitude>-10.93542</latitude>
    <longitude>-68.44411</longitude>
    <wikiDataId>Q22054061</wikiDataId>
</row><row>
    <id>11788</id>
    <name>Feijó</name>
    <state>
        <state_id>2012</state_id>
        <state_code>AC</state_code>
        <state_name>Acre</state_name>
    </state>
    <country>
        <country_id>31</country_id>
        <country_code>BR</country_code>
        <country_name>Brazil</country_name>
    </country>
    <latitude>-8.1654</latitude>
    <longitude>-70.35486</longitude>
    <wikiDataId>Q1994833</wikiDataId>
</row><row>
    <id>12647</id>
    <name>Jordão</name>
    <state>
        <state_id>2012</state_id>
        <state_code>AC</state_code>
        <state_name>Acre</state_name>
    </state>
    <country>
        <country_id>31</country_id>
        <country_code>BR</country_code>
        <country_name>Brazil</country_name>
    </country>
    <latitude>-9.09166</latitude>
    <longitude>-71.84069</longitude>
    <wikiDataId>Q1800793</wikiDataId>
</row><row>
    <id>13291</id>
    <name>Mâncio Lima</name>
    <state>
        <state_id>2012</state_id>
        <state_code>AC</state_code>
        <state_name>Acre</state_name>
    </state>
    <country>
        <country_id>31</country_id>
        <country_code>BR</country_code>
        <country_name>Brazil</country_name>
    </country>
    <latitude>-7.61417</latitude>
    <longitude>-72.89583</longitude>
    <wikiDataId>Q1772621</wikiDataId>
</row><row>
    <id>12954</id>
    <name>Manoel Urbano</name>
    <state>
        <state_id>2012</state_id>
        <state_code>AC</state_code>
        <state_name>Acre</state_name>
    </state>
    <country>
        <country_id>31</country_id>
        <country_code>BR</country_code>
        <country_name>Brazil</country_name>
    </country>
    <latitude>-8.83889</latitude>
    <longitude>-69.25972</longitude>
    <wikiDataId>Q1772688</wikiDataId>
</row><row>
    <id>13001</id>
    <name>Marechal Thaumaturgo</name>
    <state>
        <state_id>2012</state_id>
        <state_code>AC</state_code>
        <state_name>Acre</state_name>
    </state>
    <country>
        <country_id>31</country_id>
        <country_code>BR</country_code>
        <country_name>Brazil</country_name>
    </country>
    <latitude>-8.94111</latitude>
    <longitude>-72.79167</longitude>
    <wikiDataId>Q1772613</wikiDataId>
</row><row>
    <id>13945</id>
    <name>Plácido de Castro</name>
    <state>
        <state_id>2012</state_id>
        <state_code>AC</state_code>
        <state_name>Acre</state_name>
    </state>
    <country>
        <country_id>31</country_id>
        <country_code>BR</country_code>
        <country_name>Brazil</country_name>
    </country>
    <latitude>-10.33528</latitude>
    <longitude>-67.18556</longitude>
    <wikiDataId>Q964075</wikiDataId>
</row><row>
    <id>13993</id>
    <name>Porto Acre</name>
    <state>
        <state_id>2012</state_id>
        <state_code>AC</state_code>
        <state_name>Acre</state_name>
    </state>
    <country>
        <country_id>31</country_id>
        <country_code>BR</country_code>
        <country_name>Brazil</country_name>
    </country>
    <latitude>-9.65038</latitude>
    <longitude>-67.77733</longitude>
    <wikiDataId>Q2113232</wikiDataId>
</row><row>
    <id>14022</id>
    <name>Porto Walter</name>
    <state>
        <state_id>2012</state_id>
        <state_code>AC</state_code>
        <state_name>Acre</state_name>
    </state>
    <country>
        <country_id>31</country_id>
        <country_code>BR</country_code>
        <country_name>Brazil</country_name>
    </country>
    <latitude>-8.26861</latitude>
    <longitude>-72.74389</longitude>
    <wikiDataId>Q1772588</wikiDataId>
</row><row>
    <id>14263</id>
    <name>Rio Branco</name>
    <state>
        <state_id>2012</state_id>
        <state_code>AC</state_code>
        <state_name>Acre</state_name>
    </state>
    <country>
        <country_id>31</country_id>
        <country_code>BR</country_code>
        <country_name>Brazil</country_name>
    </country>
    <latitude>-9.97472</latitude>
    <longitude>-67.81</longitude>
    <wikiDataId>Q171612</wikiDataId>
</row><row>
    <id>14333</id>
    <name>Rodrigues Alves</name>
    <state>
        <state_id>2012</state_id>
        <state_code>AC</state_code>
        <state_name>Acre</state_name>
    </state>
    <country>
        <country_id>31</country_id>
        <country_code>BR</country_code>
        <country_name>Brazil</country_name>
    </country>
    <latitude>-7.85286</latitude>
    <longitude>-73.23613</longitude>
    <wikiDataId>Q1800776</wikiDataId>
</row><row>
    <id>14547</id>
    <name>Santa Rosa do Purus</name>
    <state>
        <state_id>2012</state_id>
        <state_code>AC</state_code>
        <state_name>Acre</state_name>
    </state>
    <country>
        <country_id>31</country_id>
        <country_code>BR</country_code>
        <country_name>Brazil</country_name>
    </country>
    <latitude>-9.4773</latitude>
    <longitude>-70.39032</longitude>
    <wikiDataId>Q1097771</wikiDataId>
</row><row>
    <id>14692</id>
    <name>Sena Madureira</name>
    <state>
        <state_id>2012</state_id>
        <state_code>AC</state_code>
        <state_name>Acre</state_name>
    </state>
    <country>
        <country_id>31</country_id>
        <country_code>BR</country_code>
        <country_name>Brazil</country_name>
    </country>
    <latitude>-9.06341</latitude>
    <longitude>-68.67245</longitude>
    <wikiDataId>Q1754389</wikiDataId>
</row><row>
    <id>14700</id>
    <name>Senador Guiomard</name>
    <state>
        <state_id>2012</state_id>
        <state_code>AC</state_code>
        <state_name>Acre</state_name>
    </state>
    <country>
        <country_id>31</country_id>
        <country_code>BR</country_code>
        <country_name>Brazil</country_name>
    </country>
    <latitude>-10.1497</latitude>
    <longitude>-67.73741</longitude>
    <wikiDataId>Q771763</wikiDataId>
</row><row>
    <id>15253</id>
    <name>Tarauacá</name>
    <state>
        <state_id>2012</state_id>
        <state_code>AC</state_code>
        <state_name>Acre</state_name>
    </state>
    <country>
        <country_id>31</country_id>
        <country_code>BR</country_code>
        <country_name>Brazil</country_name>
    </country>
    <latitude>-8.16139</latitude>
    <longitude>-70.76556</longitude>
    <wikiDataId>Q979910</wikiDataId>
</row><row>
    <id>15637</id>
    <name>Xapuri</name>
    <state>
        <state_id>2012</state_id>
        <state_code>AC</state_code>
        <state_name>Acre</state_name>
    </state>
    <country>
        <country_id>31</country_id>
        <country_code>BR</country_code>
        <country_name>Brazil</country_name>
    </country>
    <latitude>-10.59663</latitude>
    <longitude>-68.64891</longitude>
    <wikiDataId>Q1012531</wikiDataId>
</row><row>
    <id>15652</id>
    <name>Água Branca</name>
    <state>
        <state_id>2007</state_id>
        <state_code>AL</state_code>
        <state_name>Alagoas</state_name>
    </state>
    <country>
        <country_id>31</country_id>
        <country_code>BR</country_code>
        <country_name>Brazil</country_name>
    </country>
    <latitude>-9.26988</latitude>
    <longitude>-37.91917</longitude>
    <wikiDataId>Q1808899</wikiDataId>
</row><row>
    <id>10227</id>
    <name>Anadia</name>
    <state>
        <state_id>2007</state_id>
        <state_code>AL</state_code>
        <state_name>Alagoas</state_name>
    </state>
    <country>
        <country_id>31</country_id>
        <country_code>BR</country_code>
        <country_name>Brazil</country_name>
    </country>
    <latitude>-9.67495</latitude>
    <longitude>-36.3379</longitude>
    <wikiDataId>Q2028005</wikiDataId>
</row><row>
    <id>10337</id>
    <name>Arapiraca</name>
    <state>
        <state_id>2007</state_id>
        <state_code>AL</state_code>
        <state_name>Alagoas</state_name>
    </state>
    <country>
        <country_id>31</country_id>
        <country_code>BR</country_code>
        <country_name>Brazil</country_name>
    </country>
    <latitude>-9.7438</latitude>
    <longitude>-36.59315</longitude>
    <wikiDataId>Q626175</wikiDataId>
</row><row>
    <id>10434</id>
    <name>Atalaia</name>
    <state>
        <state_id>2007</state_id>
        <state_code>AL</state_code>
        <state_name>Alagoas</state_name>
    </state>
    <country>
        <country_id>31</country_id>
        <country_code>BR</country_code>
        <country_name>Brazil</country_name>
    </country>
    <latitude>-9.50194</latitude>
    <longitude>-36.02278</longitude>
    <wikiDataId>Q928274</wikiDataId>
</row><row>
    <id>10527</id>
    <name>Barra de Santo Antônio</name>
    <state>
        <state_id>2007</state_id>
        <state_code>AL</state_code>
        <state_name>Alagoas</state_name>
    </state>
    <country>
        <country_id>31</country_id>
        <country_code>BR</country_code>
        <country_name>Brazil</country_name>
    </country>
    <latitude>-9.40472</latitude>
    <longitude>-35.50722</longitude>
    <wikiDataId>Q1795908</wikiDataId>
</row><row>
    <id>10529</id>
    <name>Barra de São Miguel</name>
    <state>
        <state_id>2007</state_id>
        <state_code>AL</state_code>
        <state_name>Alagoas</state_name>
    </state>
    <country>
        <country_id>31</country_id>
        <country_code>BR</country_code>
        <country_name>Brazil</country_name>
    </country>
    <latitude>-9.8123</latitude>
    <longitude>-35.96087</longitude>
    <wikiDataId>Q1794183</wikiDataId>
</row><row>
    <id>10581</id>
    <name>Batalha</name>
    <state>
        <state_id>2007</state_id>
        <state_code>AL</state_code>
        <state_name>Alagoas</state_name>
    </state>
    <country>
        <country_id>31</country_id>
        <country_code>BR</country_code>
        <country_name>Brazil</country_name>
    </country>
    <latitude>-9.73256</latitude>
    <longitude>-37.08877</longitude>
    <wikiDataId>Q2028288</wikiDataId>
</row><row>
    <id>10616</id>
    <name>Belém</name>
    <state>
        <state_id>2007</state_id>
        <state_code>AL</state_code>
        <state_name>Alagoas</state_name>
    </state>
    <country>
        <country_id>31</country_id>
        <country_code>BR</country_code>
        <country_name>Brazil</country_name>
    </country>
    <latitude>-9.54424</latitude>
    <longitude>-36.50196</longitude>
    <wikiDataId>Q12829733</wikiDataId>
</row><row>
    <id>10609</id>
    <name>Belo Monte</name>
    <state>
        <state_id>2007</state_id>
        <state_code>AL</state_code>
        <state_name>Alagoas</state_name>
    </state>
    <country>
        <country_id>31</country_id>
        <country_code>BR</country_code>
        <country_name>Brazil</country_name>
    </country>
    <latitude>-9.80521</latitude>
    <longitude>-37.19157</longitude>
    <wikiDataId>Q949079</wikiDataId>
</row><row>
    <id>10677</id>
    <name>Boca da Mata</name>
    <state>
        <state_id>2007</state_id>
        <state_code>AL</state_code>
        <state_name>Alagoas</state_name>
    </state>
    <country>
        <country_id>31</country_id>
        <country_code>BR</country_code>
        <country_name>Brazil</country_name>
    </country>
    <latitude>-9.64651</latitude>
    <longitude>-36.14134</longitude>
    <wikiDataId>Q1803204</wikiDataId>
</row><row>
    <id>10767</id>
    <name>Branquinha</name>
    <state>
        <state_id>2007</state_id>
        <state_code>AL</state_code>
        <state_name>Alagoas</state_name>
    </state>
    <country>
        <country_id>31</country_id>
        <country_code>BR</country_code>
        <country_name>Brazil</country_name>
    </country>
    <latitude>-9.21168</latitude>
    <longitude>-36.08956</longitude>
    <wikiDataId>Q897232</wikiDataId>
</row><row>
    <id>10883</id>
    <name>Cacimbinhas</name>
    <state>
        <state_id>2007</state_id>
        <state_code>AL</state_code>
        <state_name>Alagoas</state_name>
    </state>
    <country>
        <country_id>31</country_id>
        <country_code>BR</country_code>
        <country_name>Brazil</country_name>
    </country>
    <latitude>-9.40028</latitude>
    <longitude>-36.99028</longitude>
    <wikiDataId>Q1808791</wikiDataId>
</row><row>
    <id>10919</id>
    <name>Cajueiro</name>
    <state>
        <state_id>2007</state_id>
        <state_code>AL</state_code>
        <state_name>Alagoas</state_name>
    </state>
    <country>
        <country_id>31</country_id>
        <country_code>BR</country_code>
        <country_name>Brazil</country_name>
    </country>
    <latitude>-9.71667</latitude>
    <longitude>-36.45</longitude>
    <wikiDataId>Q22023546</wikiDataId>
</row><row>
    <id>10957</id>
    <name>Campestre</name>
    <state>
        <state_id>2007</state_id>
        <state_code>AL</state_code>
        <state_name>Alagoas</state_name>
    </state>
    <country>
        <country_id>31</country_id>
        <country_code>BR</country_code>
        <country_name>Brazil</country_name>
    </country>
    <latitude>-8.89393</latitude>
    <longitude>-35.53237</longitude>
    <wikiDataId>Q2028637</wikiDataId>
</row><row>
    <id>10976</id>
    <name>Campo Alegre</name>
    <state>
        <state_id>2007</state_id>
        <state_code>AL</state_code>
        <state_name>Alagoas</state_name>
    </state>
    <country>
        <country_id>31</country_id>
        <country_code>BR</country_code>
        <country_name>Brazil</country_name>
    </country>
    <latitude>-9.78194</latitude>
    <longitude>-36.35083</longitude>
    <wikiDataId>Q2028275</wikiDataId>
</row><row>
    <id>10990</id>
    <name>Campo Grande</name>
    <state>
        <state_id>2007</state_id>
        <state_code>AL</state_code>
        <state_name>Alagoas</state_name>
    </state>
    <country>
        <country_id>31</country_id>
        <country_code>BR</country_code>
        <country_name>Brazil</country_name>
    </country>
    <latitude>-9.94997</latitude>
    <longitude>-36.75593</longitude>
    <wikiDataId>Q1814259</wikiDataId>
</row><row>
    <id>11024</id>
    <name>Canapi</name>
    <state>
        <state_id>2007</state_id>
        <state_code>AL</state_code>
        <state_name>Alagoas</state_name>
    </state>
    <country>
        <country_id>31</country_id>
        <country_code>BR</country_code>
        <country_name>Brazil</country_name>
    </country>
    <latitude>-9.17327</latitude>
    <longitude>-37.51985</longitude>
    <wikiDataId>Q22047157</wikiDataId>
</row><row>
    <id>11066</id>
    <name>Capela</name>
    <state>
        <state_id>2007</state_id>
        <state_code>AL</state_code>
        <state_name>Alagoas</state_name>
    </state>
    <country>
        <country_id>31</country_id>
        <country_code>BR</country_code>
        <country_name>Brazil</country_name>
    </country>
    <latitude>-9.39342</latitude>
    <longitude>-36.1239</longitude>
    <wikiDataId>Q1955261</wikiDataId>
</row><row>
    <id>11160</id>
    <name>Carneiros</name>
    <state>
        <state_id>2007</state_id>
        <state_code>AL</state_code>
        <state_name>Alagoas</state_name>
    </state>
    <country>
        <country_id>31</country_id>
        <country_code>BR</country_code>
        <country_name>Brazil</country_name>
    </country>
    <latitude>-9.46467</latitude>
    <longitude>-37.35559</longitude>
    <wikiDataId>Q22024027</wikiDataId>
</row><row>
    <id>11287</id>
    <name>Chã Preta</name>
    <state>
        <state_id>2007</state_id>
        <state_code>AL</state_code>
        <state_name>Alagoas</state_name>
    </state>
    <country>
        <country_id>31</country_id>
        <country_code>BR</country_code>
        <country_name>Brazil</country_name>
    </country>
    <latitude>-9.22921</latitude>
    <longitude>-36.33049</longitude>
    <wikiDataId>Q2010970</wikiDataId>
</row><row>
    <id>11317</id>
    <name>Coité do Nóia</name>
    <state>
        <state_id>2007</state_id>
        <state_code>AL</state_code>
        <state_name>Alagoas</state_name>
    </state>
    <country>
        <country_id>31</country_id>
        <country_code>BR</country_code>
        <country_name>Brazil</country_name>
    </country>
    <latitude>-9.62616</latitude>
    <longitude>-36.60044</longitude>
    <wikiDataId>Q1816142</wikiDataId>
</row><row>
    <id>11336</id>
    <name>Colônia Leopoldina</name>
    <state>
        <state_id>2007</state_id>
        <state_code>AL</state_code>
        <state_name>Alagoas</state_name>
    </state>
    <country>
        <country_id>31</country_id>
        <country_code>BR</country_code>
        <country_name>Brazil</country_name>
    </country>
    <latitude>-8.94183</latitude>
    <longitude>-35.76005</longitude>
    <wikiDataId>Q1795581</wikiDataId>
</row><row>
    <id>11394</id>
    <name>Coqueiro Seco</name>
    <state>
        <state_id>2007</state_id>
        <state_code>AL</state_code>
        <state_name>Alagoas</state_name>
    </state>
    <country>
        <country_id>31</country_id>
        <country_code>BR</country_code>
        <country_name>Brazil</country_name>
    </country>
    <latitude>-9.64656</latitude>
    <longitude>-35.80938</longitude>
    <wikiDataId>Q271333</wikiDataId>
</row><row>
    <id>11445</id>
    <name>Coruripe</name>
    <state>
        <state_id>2007</state_id>
        <state_code>AL</state_code>
        <state_name>Alagoas</state_name>
    </state>
    <country>
        <country_id>31</country_id>
        <country_code>BR</country_code>
        <country_name>Brazil</country_name>
    </country>
    <latitude>-10.12556</latitude>
    <longitude>-36.17556</longitude>
    <wikiDataId>Q1796426</wikiDataId>
</row><row>
    <id>11464</id>
    <name>Craíbas</name>
    <state>
        <state_id>2007</state_id>
        <state_code>AL</state_code>
        <state_name>Alagoas</state_name>
    </state>
    <country>
        <country_id>31</country_id>
        <country_code>BR</country_code>
        <country_name>Brazil</country_name>
    </country>
    <latitude>-9.60115</latitude>
    <longitude>-36.80273</longitude>
    <wikiDataId>Q1798797</wikiDataId>
</row><row>
    <id>11569</id>
    <name>Delmiro Gouveia</name>
    <state>
        <state_id>2007</state_id>
        <state_code>AL</state_code>
        <state_name>Alagoas</state_name>
    </state>
    <country>
        <country_id>31</country_id>
        <country_code>BR</country_code>
        <country_name>Brazil</country_name>
    </country>
    <latitude>-9.38861</latitude>
    <longitude>-37.99917</longitude>
    <wikiDataId>Q1808849</wikiDataId>
</row><row>
    <id>11619</id>
    <name>Dois Riachos</name>
    <state>
        <state_id>2007</state_id>
        <state_code>AL</state_code>
        <state_name>Alagoas</state_name>
    </state>
    <country>
        <country_id>31</country_id>
        <country_code>BR</country_code>
        <country_name>Brazil</country_name>
    </country>
    <latitude>-9.3925</latitude>
    <longitude>-37.10056</longitude>
    <wikiDataId>Q988800</wikiDataId>
</row><row>
    <id>11752</id>
    <name>Estrela de Alagoas</name>
    <state>
        <state_id>2007</state_id>
        <state_code>AL</state_code>
        <state_name>Alagoas</state_name>
    </state>
    <country>
        <country_id>31</country_id>
        <country_code>BR</country_code>
        <country_name>Brazil</country_name>
    </country>
    <latitude>-9.39858</latitude>
    <longitude>-36.76219</longitude>
    <wikiDataId>Q1648136</wikiDataId>
</row><row>
    <id>11789</id>
    <name>Feira Grande</name>
    <state>
        <state_id>2007</state_id>
        <state_code>AL</state_code>
        <state_name>Alagoas</state_name>
    </state>
    <country>
        <country_id>31</country_id>
        <country_code>BR</country_code>
        <country_name>Brazil</country_name>
    </country>
    <latitude>-9.9247</latitude>
    <longitude>-36.66953</longitude>
    <wikiDataId>Q1994833</wikiDataId>
</row><row>
    <id>11799</id>
    <name>Feliz Deserto</name>
    <state>
        <state_id>2007</state_id>
        <state_code>AL</state_code>
        <state_name>Alagoas</state_name>
    </state>
    <country>
        <country_id>31</country_id>
        <country_code>BR</country_code>
        <country_name>Brazil</country_name>
    </country>
    <latitude>-10.2908</latitude>
    <longitude>-36.35367</longitude>
    <wikiDataId>Q194343</wikiDataId>
</row><row>
    <id>11824</id>
    <name>Flexeiras</name>
    <state>
        <state_id>2007</state_id>
        <state_code>AL</state_code>
        <state_name>Alagoas</state_name>
    </state>
    <country>
        <country_id>31</country_id>
        <country_code>BR</country_code>
        <country_name>Brazil</country_name>
    </country>
    <latitude>-9.20061</latitude>
    <longitude>-35.78</longitude>
    <wikiDataId>Q1816177</wikiDataId>
</row><row>
    <id>11945</id>
    <name>Girau do Ponciano</name>
    <state>
        <state_id>2007</state_id>
        <state_code>AL</state_code>
        <state_name>Alagoas</state_name>
    </state>
    <country>
        <country_id>31</country_id>
        <country_code>BR</country_code>
        <country_name>Brazil</country_name>
    </country>
    <latitude>-9.88417</latitude>
    <longitude>-36.82889</longitude>
    <wikiDataId>Q768122</wikiDataId>
</row><row>
    <id>12123</id>
    <name>Ibateguara</name>
    <state>
        <state_id>2007</state_id>
        <state_code>AL</state_code>
        <state_name>Alagoas</state_name>
    </state>
    <country>
        <country_id>31</country_id>
        <country_code>BR</country_code>
        <country_name>Brazil</country_name>
    </country>
    <latitude>-8.9725</latitude>
    <longitude>-35.93944</longitude>
    <wikiDataId>Q2021130</wikiDataId>
</row><row>
    <id>12177</id>
    <name>Igaci</name>
    <state>
        <state_id>2007</state_id>
        <state_code>AL</state_code>
        <state_name>Alagoas</state_name>
    </state>
    <country>
        <country_id>31</country_id>
        <country_code>BR</country_code>
        <country_name>Brazil</country_name>
    </country>
    <latitude>-9.53694</latitude>
    <longitude>-36.63361</longitude>
    <wikiDataId>Q1808097</wikiDataId>
</row><row>
    <id>12193</id>
    <name>Igreja Nova</name>
    <state>
        <state_id>2007</state_id>
        <state_code>AL</state_code>
        <state_name>Alagoas</state_name>
    </state>
    <country>
        <country_id>31</country_id>
        <country_code>BR</country_code>
        <country_name>Brazil</country_name>
    </country>
    <latitude>-10.1666</latitude>
    <longitude>-36.61724</longitude>
    <wikiDataId>Q594183</wikiDataId>
</row><row>
    <id>12249</id>
    <name>Inhapi</name>
    <state>
        <state_id>2007</state_id>
        <state_code>AL</state_code>
        <state_name>Alagoas</state_name>
    </state>
    <country>
        <country_id>31</country_id>
        <country_code>BR</country_code>
        <country_name>Brazil</country_name>
    </country>
    <latitude>-9.22139</latitude>
    <longitude>-37.74861</longitude>
    <wikiDataId>Q2021140</wikiDataId>
</row><row>
    <id>12522</id>
    <name>Jacaré dos Homens</name>
    <state>
        <state_id>2007</state_id>
        <state_code>AL</state_code>
        <state_name>Alagoas</state_name>
    </state>
    <country>
        <country_id>31</country_id>
        <country_code>BR</country_code>
        <country_name>Brazil</country_name>
    </country>
    <latitude>-9.67278</latitude>
    <longitude>-37.22275</longitude>
    <wikiDataId>Q655363</wikiDataId>
</row><row>
    <id>12535</id>
    <name>Jacuípe</name>
    <state>
        <state_id>2007</state_id>
        <state_code>AL</state_code>
        <state_name>Alagoas</state_name>
    </state>
    <country>
        <country_id>31</country_id>
        <country_code>BR</country_code>
        <country_name>Brazil</country_name>
    </country>
    <latitude>-8.87722</latitude>
    <longitude>-35.45885</longitude>
    <wikiDataId>Q1804332</wikiDataId>
</row><row>
    <id>12566</id>
    <name>Japaratinga</name>
    <state>
        <state_id>2007</state_id>
        <state_code>AL</state_code>
        <state_name>Alagoas</state_name>
    </state>
    <country>
        <country_id>31</country_id>
        <country_code>BR</country_code>
        <country_name>Brazil</country_name>
    </country>
    <latitude>-9.099</latitude>
    <longitude>-35.29631</longitude>
    <wikiDataId>Q1808087</wikiDataId>
</row><row>
    <id>12582</id>
    <name>Jaramataia</name>
    <state>
        <state_id>2007</state_id>
        <state_code>AL</state_code>
        <state_name>Alagoas</state_name>
    </state>
    <country>
        <country_id>31</country_id>
        <country_code>BR</country_code>
        <country_name>Brazil</country_name>
    </country>
    <latitude>-9.65053</latitude>
    <longitude>-36.96036</longitude>
    <wikiDataId>Q849584</wikiDataId>
</row><row>
    <id>12618</id>
    <name>Jequiá da Praia</name>
    <state>
        <state_id>2007</state_id>
        <state_code>AL</state_code>
        <state_name>Alagoas</state_name>
    </state>
    <country>
        <country_id>31</country_id>
        <country_code>BR</country_code>
        <country_name>Brazil</country_name>
    </country>
    <latitude>-9.91151</latitude>
    <longitude>-36.09896</longitude>
    <wikiDataId>Q1808524</wikiDataId>
</row><row>
    <id>12637</id>
    <name>Joaquim Gomes</name>
    <state>
        <state_id>2007</state_id>
        <state_code>AL</state_code>
        <state_name>Alagoas</state_name>
    </state>
    <country>
        <country_id>31</country_id>
        <country_code>BR</country_code>
        <country_name>Brazil</country_name>
    </country>
    <latitude>-9.10352</latitude>
    <longitude>-35.73739</longitude>
    <wikiDataId>Q2027123</wikiDataId>
</row><row>
    <id>12686</id>
    <name>Jundiá</name>
    <state>
        <state_id>2007</state_id>
        <state_code>AL</state_code>
        <state_name>Alagoas</state_name>
    </state>
    <country>
        <country_id>31</country_id>
        <country_code>BR</country_code>
        <country_name>Brazil</country_name>
    </country>
    <latitude>-8.93472</latitude>
    <longitude>-35.57361</longitude>
    <wikiDataId>Q2020978</wikiDataId>
</row><row>
    <id>12688</id>
    <name>Junqueiro</name>
    <state>
        <state_id>2007</state_id>
        <state_code>AL</state_code>
        <state_name>Alagoas</state_name>
    </state>
    <country>
        <country_id>31</country_id>
        <country_code>BR</country_code>
        <country_name>Brazil</country_name>
    </country>
    <latitude>-9.88524</latitude>
    <longitude>-36.4564</longitude>
    <wikiDataId>Q1808328</wikiDataId>
</row><row>
    <id>12749</id>
    <name>Lagoa da Canoa</name>
    <state>
        <state_id>2007</state_id>
        <state_code>AL</state_code>
        <state_name>Alagoas</state_name>
    </state>
    <country>
        <country_id>31</country_id>
        <country_code>BR</country_code>
        <country_name>Brazil</country_name>
    </country>
    <latitude>-9.82972</latitude>
    <longitude>-36.73778</longitude>
    <wikiDataId>Q1795976</wikiDataId>
</row><row>
    <id>12832</id>
    <name>Limoeiro de Anadia</name>
    <state>
        <state_id>2007</state_id>
        <state_code>AL</state_code>
        <state_name>Alagoas</state_name>
    </state>
    <country>
        <country_id>31</country_id>
        <country_code>BR</country_code>
        <country_name>Brazil</country_name>
    </country>
    <latitude>-9.72685</latitude>
    <longitude>-36.45407</longitude>
    <wikiDataId>Q961349</wikiDataId>
</row><row>
    <id>12896</id>
    <name>Maceió</name>
    <state>
        <state_id>2007</state_id>
        <state_code>AL</state_code>
        <state_name>Alagoas</state_name>
    </state>
    <country>
        <country_id>31</country_id>
        <country_code>BR</country_code>
        <country_name>Brazil</country_name>
    </country>
    <latitude>-9.66583</latitude>
    <longitude>-35.73528</longitude>
    <wikiDataId>Q168888</wikiDataId>
</row><row>
    <id>12921</id>
    <name>Major Isidoro</name>
    <state>
        <state_id>2007</state_id>
        <state_code>AL</state_code>
        <state_name>Alagoas</state_name>
    </state>
    <country>
        <country_id>31</country_id>
        <country_code>BR</country_code>
        <country_name>Brazil</country_name>
    </country>
    <latitude>-9.53222</latitude>
    <longitude>-36.985</longitude>
    <wikiDataId>Q1808271</wikiDataId>
</row><row>
    <id>12961</id>
    <name>Mar Vermelho</name>
    <state>
        <state_id>2007</state_id>
        <state_code>AL</state_code>
        <state_name>Alagoas</state_name>
    </state>
    <country>
        <country_id>31</country_id>
        <country_code>BR</country_code>
        <country_name>Brazil</country_name>
    </country>
    <latitude>-9.49247</latitude>
    <longitude>-36.35042</longitude>
    <wikiDataId>Q2028214</wikiDataId>
</row><row>
    <id>12973</id>
    <name>Maragogi</name>
    <state>
        <state_id>2007</state_id>
        <state_code>AL</state_code>
        <state_name>Alagoas</state_name>
    </state>
    <country>
        <country_id>31</country_id>
        <country_code>BR</country_code>
        <country_name>Brazil</country_name>
    </country>
    <latitude>-9.01222</latitude>
    <longitude>-35.2225</longitude>
    <wikiDataId>Q971736</wikiDataId>
</row><row>
    <id>12985</id>
    <name>Maravilha</name>
    <state>
        <state_id>2007</state_id>
        <state_code>AL</state_code>
        <state_name>Alagoas</state_name>
    </state>
    <country>
        <country_id>31</country_id>
        <country_code>BR</country_code>
        <country_name>Brazil</country_name>
    </country>
    <latitude>-9.22305</latitude>
    <longitude>-37.37936</longitude>
    <wikiDataId>Q1784401</wikiDataId>
</row><row>
    <id>12999</id>
    <name>Marechal Deodoro</name>
    <state>
        <state_id>2007</state_id>
        <state_code>AL</state_code>
        <state_name>Alagoas</state_name>
    </state>
    <country>
        <country_id>31</country_id>
        <country_code>BR</country_code>
        <country_name>Brazil</country_name>
    </country>
    <latitude>-9.71028</latitude>
    <longitude>-35.895</longitude>
    <wikiDataId>Q985275</wikiDataId>
</row><row>
    <id>13011</id>
    <name>Maribondo</name>
    <state>
        <state_id>2007</state_id>
        <state_code>AL</state_code>
        <state_name>Alagoas</state_name>
    </state>
    <country>
        <country_id>31</country_id>
        <country_code>BR</country_code>
        <country_name>Brazil</country_name>
    </country>
    <latitude>-9.57722</latitude>
    <longitude>-36.30528</longitude>
    <wikiDataId>Q2021217</wikiDataId>
</row><row>
    <id>13046</id>
    <name>Mata Grande</name>
    <state>
        <state_id>2007</state_id>
        <state_code>AL</state_code>
        <state_name>Alagoas</state_name>
    </state>
    <country>
        <country_id>31</country_id>
        <country_code>BR</country_code>
        <country_name>Brazil</country_name>
    </country>
    <latitude>-8.98543</latitude>
    <longitude>-37.7615</longitude>
    <wikiDataId>Q2027641</wikiDataId>
</row><row>
    <id>13073</id>
    <name>Matriz de Camaragibe</name>
    <state>
        <state_id>2007</state_id>
        <state_code>AL</state_code>
        <state_name>Alagoas</state_name>
    </state>
    <country>
        <country_id>31</country_id>
        <country_code>BR</country_code>
        <country_name>Brazil</country_name>
    </country>
    <latitude>-9.15167</latitude>
    <longitude>-35.53333</longitude>
    <wikiDataId>Q2013614</wikiDataId>
</row><row>
    <id>13106</id>
    <name>Messias</name>
    <state>
        <state_id>2007</state_id>
        <state_code>AL</state_code>
        <state_name>Alagoas</state_name>
    </state>
    <country>
        <country_id>31</country_id>
        <country_code>BR</country_code>
        <country_name>Brazil</country_name>
    </country>
    <latitude>-9.38333</latitude>
    <longitude>-35.84167</longitude>
    <wikiDataId>Q2028160</wikiDataId>
</row><row>
    <id>13121</id>
    <name>Minador do Negrão</name>
    <state>
        <state_id>2007</state_id>
        <state_code>AL</state_code>
        <state_name>Alagoas</state_name>
    </state>
    <country>
        <country_id>31</country_id>
        <country_code>BR</country_code>
        <country_name>Brazil</country_name>
    </country>
    <latitude>-9.30528</latitude>
    <longitude>-36.86472</longitude>
    <wikiDataId>Q767029</wikiDataId>
</row><row>
    <id>13217</id>
    <name>Monteirópolis</name>
    <state>
        <state_id>2007</state_id>
        <state_code>AL</state_code>
        <state_name>Alagoas</state_name>
    </state>
    <country>
        <country_id>31</country_id>
        <country_code>BR</country_code>
        <country_name>Brazil</country_name>
    </country>
    <latitude>-9.62019</latitude>
    <longitude>-37.2935</longitude>
    <wikiDataId>Q1760453</wikiDataId>
</row><row>
    <id>13280</id>
    <name>Murici</name>
    <state>
        <state_id>2007</state_id>
        <state_code>AL</state_code>
        <state_name>Alagoas</state_name>
    </state>
    <country>
        <country_id>31</country_id>
        <country_code>BR</country_code>
        <country_name>Brazil</country_name>
    </country>
    <latitude>-9.29835</latitude>
    <longitude>-35.89999</longitude>
    <wikiDataId>Q1795628</wikiDataId>
</row><row>
    <id>13468</id>
    <name>Novo Lino</name>
    <state>
        <state_id>2007</state_id>
        <state_code>AL</state_code>
        <state_name>Alagoas</state_name>
    </state>
    <country>
        <country_id>31</country_id>
        <country_code>BR</country_code>
        <country_name>Brazil</country_name>
    </country>
    <latitude>-8.88091</latitude>
    <longitude>-35.61948</longitude>
    <wikiDataId>Q1816167</wikiDataId>
</row><row>
    <id>13497</id>
    <name>Olho d'Água das Flores</name>
    <state>
        <state_id>2007</state_id>
        <state_code>AL</state_code>
        <state_name>Alagoas</state_name>
    </state>
    <country>
        <country_id>31</country_id>
        <country_code>BR</country_code>
        <country_name>Brazil</country_name>
    </country>
    <latitude>-9.54034</latitude>
    <longitude>-37.25214</longitude>
    <wikiDataId>Q2077934</wikiDataId>
</row><row>
    <id>13498</id>
    <name>Olho d'Água do Casado</name>
    <state>
        <state_id>2007</state_id>
        <state_code>AL</state_code>
        <state_name>Alagoas</state_name>
    </state>
    <country>
        <country_id>31</country_id>
        <country_code>BR</country_code>
        <country_name>Brazil</country_name>
    </country>
    <latitude>-9.45648</latitude>
    <longitude>-37.83496</longitude>
    <wikiDataId>Q1808294</wikiDataId>
</row><row>
    <id>13495</id>
    <name>Olho d'Água Grande</name>
    <state>
        <state_id>2007</state_id>
        <state_code>AL</state_code>
        <state_name>Alagoas</state_name>
    </state>
    <country>
        <country_id>31</country_id>
        <country_code>BR</country_code>
        <country_name>Brazil</country_name>
    </country>
    <latitude>-10.05622</latitude>
    <longitude>-36.79522</longitude>
    <wikiDataId>Q2077934</wikiDataId>
</row><row>
    <id>13510</id>
    <name>Olivença</name>
    <state>
        <state_id>2007</state_id>
        <state_code>AL</state_code>
        <state_name>Alagoas</state_name>
    </state>
    <country>
        <country_id>31</country_id>
        <country_code>BR</country_code>
        <country_name>Brazil</country_name>
    </country>
    <latitude>-9.51861</latitude>
    <longitude>-37.19056</longitude>
    <wikiDataId>Q950712</wikiDataId>
</row><row>
    <id>13539</id>
    <name>Ouro Branco</name>
    <state>
        <state_id>2007</state_id>
        <state_code>AL</state_code>
        <state_name>Alagoas</state_name>
    </state>
    <country>
        <country_id>31</country_id>
        <country_code>BR</country_code>
        <country_name>Brazil</country_name>
    </country>
    <latitude>-9.12895</latitude>
    <longitude>-37.37367</longitude>
    <wikiDataId>Q2355814</wikiDataId>
</row><row>
    <id>13575</id>
    <name>Palestina</name>
    <state>
        <state_id>2007</state_id>
        <state_code>AL</state_code>
        <state_name>Alagoas</state_name>
    </state>
    <country>
        <country_id>31</country_id>
        <country_code>BR</country_code>
        <country_name>Brazil</country_name>
    </country>
    <latitude>-9.67504</latitude>
    <longitude>-37.331</longitude>
    <wikiDataId>Q2005187</wikiDataId>
</row><row>
    <id>13594</id>
    <name>Palmeira dos Índios</name>
    <state>
        <state_id>2007</state_id>
        <state_code>AL</state_code>
        <state_name>Alagoas</state_name>
    </state>
    <country>
        <country_id>31</country_id>
        <country_code>BR</country_code>
        <country_name>Brazil</country_name>
    </country>
    <latitude>-9.40902</latitude>
    <longitude>-36.60651</longitude>
    <wikiDataId>Q948268</wikiDataId>
</row><row>
    <id>14119</id>
    <name>Pão de Açúcar</name>
    <state>
        <state_id>2007</state_id>
        <state_code>AL</state_code>
        <state_name>Alagoas</state_name>
    </state>
    <country>
        <country_id>31</country_id>
        <country_code>BR</country_code>
        <country_name>Brazil</country_name>
    </country>
    <latitude>-9.68353</latitude>
    <longitude>-37.45431</longitude>
    <wikiDataId>Q2027100</wikiDataId>
</row><row>
    <id>13671</id>
    <name>Pariconha</name>
    <state>
        <state_id>2007</state_id>
        <state_code>AL</state_code>
        <state_name>Alagoas</state_name>
    </state>
    <country>
        <country_id>31</country_id>
        <country_code>BR</country_code>
        <country_name>Brazil</country_name>
    </country>
    <latitude>-9.22039</latitude>
    <longitude>-38.0167</longitude>
    <wikiDataId>Q1786896</wikiDataId>
</row><row>
    <id>13674</id>
    <name>Paripueira</name>
    <state>
        <state_id>2007</state_id>
        <state_code>AL</state_code>
        <state_name>Alagoas</state_name>
    </state>
    <country>
        <country_id>31</country_id>
        <country_code>BR</country_code>
        <country_name>Brazil</country_name>
    </country>
    <latitude>-9.4294</latitude>
    <longitude>-35.58979</longitude>
    <wikiDataId>Q1761881</wikiDataId>
</row><row>
    <id>13697</id>
    <name>Passo de Camaragibe</name>
    <state>
        <state_id>2007</state_id>
        <state_code>AL</state_code>
        <state_name>Alagoas</state_name>
    </state>
    <country>
        <country_id>31</country_id>
        <country_code>BR</country_code>
        <country_name>Brazil</country_name>
    </country>
    <latitude>-9.29865</latitude>
    <longitude>-35.42788</longitude>
    <wikiDataId>Q525647</wikiDataId>
</row><row>
    <id>13734</id>
    <name>Paulo Jacinto</name>
    <state>
        <state_id>2007</state_id>
        <state_code>AL</state_code>
        <state_name>Alagoas</state_name>
    </state>
    <country>
        <country_id>31</country_id>
        <country_code>BR</country_code>
        <country_name>Brazil</country_name>
    </country>
    <latitude>-9.36843</latitude>
    <longitude>-36.39294</longitude>
    <wikiDataId>Q2007799</wikiDataId>
</row><row>
    <id>13795</id>
    <name>Penedo</name>
    <state>
        <state_id>2007</state_id>
        <state_code>AL</state_code>
        <state_name>Alagoas</state_name>
    </state>
    <country>
        <country_id>31</country_id>
        <country_code>BR</country_code>
        <country_name>Brazil</country_name>
    </country>
    <latitude>-10.24448</latitude>
    <longitude>-36.46992</longitude>
    <wikiDataId>Q1772658</wikiDataId>
</row><row>
    <id>13827</id>
    <name>Piaçabuçu</name>
    <state>
        <state_id>2007</state_id>
        <state_code>AL</state_code>
        <state_name>Alagoas</state_name>
    </state>
    <country>
        <country_id>31</country_id>
        <country_code>BR</country_code>
        <country_name>Brazil</country_name>
    </country>
    <latitude>-10.40556</latitude>
    <longitude>-36.43444</longitude>
    <wikiDataId>Q1772595</wikiDataId>
</row><row>
    <id>13837</id>
    <name>Pilar</name>
    <state>
        <state_id>2007</state_id>
        <state_code>AL</state_code>
        <state_name>Alagoas</state_name>
    </state>
    <country>
        <country_id>31</country_id>
        <country_code>BR</country_code>
        <country_name>Brazil</country_name>
    </country>
    <latitude>-9.61752</latitude>
    <longitude>-36.06323</longitude>
    <wikiDataId>Q2013557</wikiDataId>
</row><row>
    <id>13852</id>
    <name>Pindoba</name>
    <state>
        <state_id>2007</state_id>
        <state_code>AL</state_code>
        <state_name>Alagoas</state_name>
    </state>
    <country>
        <country_id>31</country_id>
        <country_code>BR</country_code>
        <country_name>Brazil</country_name>
    </country>
    <latitude>-9.47492</latitude>
    <longitude>-36.30343</longitude>
    <wikiDataId>Q2065093</wikiDataId>
</row><row>
    <id>13897</id>
    <name>Piranhas</name>
    <state>
        <state_id>2007</state_id>
        <state_code>AL</state_code>
        <state_name>Alagoas</state_name>
    </state>
    <country>
        <country_id>31</country_id>
        <country_code>BR</country_code>
        <country_name>Brazil</country_name>
    </country>
    <latitude>-9.54806</latitude>
    <longitude>-37.74529</longitude>
    <wikiDataId>Q1025769</wikiDataId>
</row><row>
    <id>14051</id>
    <name>Poço das Trincheiras</name>
    <state>
        <state_id>2007</state_id>
        <state_code>AL</state_code>
        <state_name>Alagoas</state_name>
    </state>
    <country>
        <country_id>31</country_id>
        <country_code>BR</country_code>
        <country_name>Brazil</country_name>
    </country>
    <latitude>-9.3125</latitude>
    <longitude>-37.28556</longitude>
    <wikiDataId>Q1795960</wikiDataId>
</row><row>
    <id>14001</id>
    <name>Porto Calvo</name>
    <state>
        <state_id>2007</state_id>
        <state_code>AL</state_code>
        <state_name>Alagoas</state_name>
    </state>
    <country>
        <country_id>31</country_id>
        <country_code>BR</country_code>
        <country_name>Brazil</country_name>
    </country>
    <latitude>-9.045</latitude>
    <longitude>-35.39833</longitude>
    <wikiDataId>Q1772636</wikiDataId>
</row><row>
    <id>14026</id>
    <name>Porto de Pedras</name>
    <state>
        <state_id>2007</state_id>
        <state_code>AL</state_code>
        <state_name>Alagoas</state_name>
    </state>
    <country>
        <country_id>31</country_id>
        <country_code>BR</country_code>
        <country_name>Brazil</country_name>
    </country>
    <latitude>-9.11562</latitude>
    <longitude>-35.39158</longitude>
    <wikiDataId>Q2011894</wikiDataId>
</row><row>
    <id>14014</id>
    <name>Porto Real do Colégio</name>
    <state>
        <state_id>2007</state_id>
        <state_code>AL</state_code>
        <state_name>Alagoas</state_name>
    </state>
    <country>
        <country_id>31</country_id>
        <country_code>BR</country_code>
        <country_name>Brazil</country_name>
    </country>
    <latitude>-10.10538</latitude>
    <longitude>-36.72695</longitude>
    <wikiDataId>Q22036573</wikiDataId>
</row><row>
    <id>14136</id>
    <name>Quebrangulo</name>
    <state>
        <state_id>2007</state_id>
        <state_code>AL</state_code>
        <state_name>Alagoas</state_name>
    </state>
    <country>
        <country_id>31</country_id>
        <country_code>BR</country_code>
        <country_name>Brazil</country_name>
    </country>
    <latitude>-9.31889</latitude>
    <longitude>-36.47111</longitude>
    <wikiDataId>Q1772591</wikiDataId>
</row><row>
    <id>14279</id>
    <name>Rio Largo</name>
    <state>
        <state_id>2007</state_id>
        <state_code>AL</state_code>
        <state_name>Alagoas</state_name>
    </state>
    <country>
        <country_id>31</country_id>
        <country_code>BR</country_code>
        <country_name>Brazil</country_name>
    </country>
    <latitude>-9.47833</latitude>
    <longitude>-35.85333</longitude>
    <wikiDataId>Q530211</wikiDataId>
</row><row>
    <id>14356</id>
    <name>Roteiro</name>
    <state>
        <state_id>2007</state_id>
        <state_code>AL</state_code>
        <state_name>Alagoas</state_name>
    </state>
    <country>
        <country_id>31</country_id>
        <country_code>BR</country_code>
        <country_name>Brazil</country_name>
    </country>
    <latitude>-9.85906</latitude>
    <longitude>-35.98311</longitude>
    <wikiDataId>Q266960</wikiDataId>
</row><row>
    <id>14495</id>
    <name>Santa Luzia do Norte</name>
    <state>
        <state_id>2007</state_id>
        <state_code>AL</state_code>
        <state_name>Alagoas</state_name>
    </state>
    <country>
        <country_id>31</country_id>
        <country_code>BR</country_code>
        <country_name>Brazil</country_name>
    </country>
    <latitude>-9.61082</latitude>
    <longitude>-35.82917</longitude>
    <wikiDataId>Q1977528</wikiDataId>
</row><row>
    <id>14582</id>
    <name>Santana do Ipanema</name>
    <state>
        <state_id>2007</state_id>
        <state_code>AL</state_code>
        <state_name>Alagoas</state_name>
    </state>
    <country>
        <country_id>31</country_id>
        <country_code>BR</country_code>
        <country_name>Brazil</country_name>
    </country>
    <latitude>-9.37833</latitude>
    <longitude>-37.24528</longitude>
    <wikiDataId>Q2021116</wikiDataId>
</row><row>
    <id>14589</id>
    <name>Santana do Mundaú</name>
    <state>
        <state_id>2007</state_id>
        <state_code>AL</state_code>
        <state_name>Alagoas</state_name>
    </state>
    <country>
        <country_id>31</country_id>
        <country_code>BR</country_code>
        <country_name>Brazil</country_name>
    </country>
    <latitude>-9.16806</latitude>
    <longitude>-36.22222</longitude>
    <wikiDataId>Q22016386</wikiDataId>
</row><row>
    <id>14850</id>
    <name>São Brás</name>
    <state>
        <state_id>2007</state_id>
        <state_code>AL</state_code>
        <state_name>Alagoas</state_name>
    </state>
    <country>
        <country_id>31</country_id>
        <country_code>BR</country_code>
        <country_name>Brazil</country_name>
    </country>
    <latitude>-10.12409</latitude>
    <longitude>-36.85043</longitude>
    <wikiDataId>Q22035039</wikiDataId>
</row><row>
    <id>14944</id>
    <name>São José da Laje</name>
    <state>
        <state_id>2007</state_id>
        <state_code>AL</state_code>
        <state_name>Alagoas</state_name>
    </state>
    <country>
        <country_id>31</country_id>
        <country_code>BR</country_code>
        <country_name>Brazil</country_name>
    </country>
    <latitude>-9.00972</latitude>
    <longitude>-36.05833</longitude>
    <wikiDataId>Q1808170</wikiDataId>
</row><row>
    <id>14947</id>
    <name>São José da Tapera</name>
    <state>
        <state_id>2007</state_id>
        <state_code>AL</state_code>
        <state_name>Alagoas</state_name>
    </state>
    <country>
        <country_id>31</country_id>
        <country_code>BR</country_code>
        <country_name>Brazil</country_name>
    </country>
    <latitude>-9.55833</latitude>
    <longitude>-37.38111</longitude>
    <wikiDataId>Q1808190</wikiDataId>
</row><row>
    <id>15067</id>
    <name>São Luís do Quitunde</name>
    <state>
        <state_id>2007</state_id>
        <state_code>AL</state_code>
        <state_name>Alagoas</state_name>
    </state>
    <country>
        <country_id>31</country_id>
        <country_code>BR</country_code>
        <country_name>Brazil</country_name>
    </country>
    <latitude>-9.31833</latitude>
    <longitude>-35.56111</longitude>
    <wikiDataId>Q1808105</wikiDataId>
</row><row>
    <id>15097</id>
    <name>São Miguel dos Campos</name>
    <state>
        <state_id>2007</state_id>
        <state_code>AL</state_code>
        <state_name>Alagoas</state_name>
    </state>
    <country>
        <country_id>31</country_id>
        <country_code>BR</country_code>
        <country_name>Brazil</country_name>
    </country>
    <latitude>-9.78111</latitude>
    <longitude>-36.09361</longitude>
    <wikiDataId>Q1816037</wikiDataId>
</row><row>
    <id>15098</id>
    <name>São Miguel dos Milagres</name>
    <state>
        <state_id>2007</state_id>
        <state_code>AL</state_code>
        <state_name>Alagoas</state_name>
    </state>
    <country>
        <country_id>31</country_id>
        <country_code>BR</country_code>
        <country_name>Brazil</country_name>
    </country>
    <latitude>-9.25423</latitude>
    <longitude>-35.38419</longitude>
    <wikiDataId>Q1816037</wikiDataId>
</row><row>
    <id>15136</id>
    <name>São Sebastião</name>
    <state>
        <state_id>2007</state_id>
        <state_code>AL</state_code>
        <state_name>Alagoas</state_name>
    </state>
    <country>
        <country_id>31</country_id>
        <country_code>BR</country_code>
        <country_name>Brazil</country_name>
    </country>
    <latitude>-9.96698</latitude>
    <longitude>-36.5528</longitude>
    <wikiDataId>Q2014339</wikiDataId>
</row><row>
    <id>14673</id>
    <name>Satuba</name>
    <state>
        <state_id>2007</state_id>
        <state_code>AL</state_code>
        <state_name>Alagoas</state_name>
    </state>
    <country>
        <country_id>31</country_id>
        <country_code>BR</country_code>
        <country_name>Brazil</country_name>
    </country>
    <latitude>-9.56333</latitude>
    <longitude>-35.82444</longitude>
    <wikiDataId>Q1795925</wikiDataId>
</row><row>
    <id>14706</id>
    <name>Senador Rui Palmeira</name>
    <state>
        <state_id>2007</state_id>
        <state_code>AL</state_code>
        <state_name>Alagoas</state_name>
    </state>
    <country>
        <country_id>31</country_id>
        <country_code>BR</country_code>
        <country_name>Brazil</country_name>
    </country>
    <latitude>-9.33827</latitude>
    <longitude>-37.55968</longitude>
    <wikiDataId>Q1795898</wikiDataId>
</row><row>
    <id>15221</id>
    <name>Tanque d'Arca</name>
    <state>
        <state_id>2007</state_id>
        <state_code>AL</state_code>
        <state_name>Alagoas</state_name>
    </state>
    <country>
        <country_id>31</country_id>
        <country_code>BR</country_code>
        <country_name>Brazil</country_name>
    </country>
    <latitude>-9.56069</latitude>
    <longitude>-36.40824</longitude>
    <wikiDataId>Q1772722</wikiDataId>
</row><row>
    <id>15243</id>
    <name>Taquarana</name>
    <state>
        <state_id>2007</state_id>
        <state_code>AL</state_code>
        <state_name>Alagoas</state_name>
    </state>
    <country>
        <country_id>31</country_id>
        <country_code>BR</country_code>
        <country_name>Brazil</country_name>
    </country>
    <latitude>-9.64342</latitude>
    <longitude>-36.49419</longitude>
    <wikiDataId>Q22061199</wikiDataId>
</row><row>
    <id>15282</id>
    <name>Teotônio Vilela</name>
    <state>
        <state_id>2007</state_id>
        <state_code>AL</state_code>
        <state_name>Alagoas</state_name>
    </state>
    <country>
        <country_id>31</country_id>
        <country_code>BR</country_code>
        <country_name>Brazil</country_name>
    </country>
    <latitude>-9.99012</latitude>
    <longitude>-36.43273</longitude>
    <wikiDataId>Q13109202</wikiDataId>
</row><row>
    <id>15347</id>
    <name>Traipu</name>
    <state>
        <state_id>2007</state_id>
        <state_code>AL</state_code>
        <state_name>Alagoas</state_name>
    </state>
    <country>
        <country_id>31</country_id>
        <country_code>BR</country_code>
        <country_name>Brazil</country_name>
    </country>
    <latitude>-9.8924</latitude>
    <longitude>-36.97849</longitude>
    <wikiDataId>Q1772703</wikiDataId>
</row><row>
    <id>15463</id>
    <name>União dos Palmares</name>
    <state>
        <state_id>2007</state_id>
        <state_code>AL</state_code>
        <state_name>Alagoas</state_name>
    </state>
    <country>
        <country_id>31</country_id>
        <country_code>BR</country_code>
        <country_name>Brazil</country_name>
    </country>
    <latitude>-9.13251</latitude>
    <longitude>-36.08182</longitude>
    <wikiDataId>Q22063263</wikiDataId>
</row><row>
    <id>15606</id>
    <name>Viçosa</name>
    <state>
        <state_id>2007</state_id>
        <state_code>AL</state_code>
        <state_name>Alagoas</state_name>
    </state>
    <country>
        <country_id>31</country_id>
        <country_code>BR</country_code>
        <country_name>Brazil</country_name>
    </country>
    <latitude>-9.36022</latitude>
    <longitude>-36.32095</longitude>
    <wikiDataId>Q22063262</wikiDataId>
</row><row>
    <id>10204</id>
    <name>Amapá</name>
    <state>
        <state_id>1999</state_id>
        <state_code>AP</state_code>
        <state_name>Amapá</state_name>
    </state>
    <country>
        <country_id>31</country_id>
        <country_code>BR</country_code>
        <country_name>Brazil</country_name>
    </country>
    <latitude>1.85706</latitude>
    <longitude>-50.84374</longitude>
    <wikiDataId>Q586263</wikiDataId>
</row><row>
    <id>10933</id>
    <name>Calçoene</name>
    <state>
        <state_id>1999</state_id>
        <state_code>AP</state_code>
        <state_name>Amapá</state_name>
    </state>
    <country>
        <country_id>31</country_id>
        <country_code>BR</country_code>
        <country_name>Brazil</country_name>
    </country>
    <latitude>2.36098</latitude>
    <longitude>-51.45285</longitude>
    <wikiDataId>Q2088907</wikiDataId>
</row><row>
    <id>11541</id>
    <name>Cutias</name>
    <state>
        <state_id>1999</state_id>
        <state_code>AP</state_code>
        <state_name>Amapá</state_name>
    </state>
    <country>
        <country_id>31</country_id>
        <country_code>BR</country_code>
        <country_name>Brazil</country_name>
    </country>
    <latitude>0.99713</latitude>
    <longitude>-50.52041</longitude>
    <wikiDataId>Q2013538</wikiDataId>
</row><row>
    <id>11812</id>
    <name>Ferreira Gomes</name>
    <state>
        <state_id>1999</state_id>
        <state_code>AP</state_code>
        <state_name>Amapá</state_name>
    </state>
    <country>
        <country_id>31</country_id>
        <country_code>BR</country_code>
        <country_name>Brazil</country_name>
    </country>
    <latitude>0.91012</latitude>
    <longitude>-51.35442</longitude>
    <wikiDataId>Q1646968</wikiDataId>
</row><row>
    <id>12462</id>
    <name>Itaubal</name>
    <state>
        <state_id>1999</state_id>
        <state_code>AP</state_code>
        <state_name>Amapá</state_name>
    </state>
    <country>
        <country_id>31</country_id>
        <country_code>BR</country_code>
        <country_name>Brazil</country_name>
    </country>
    <latitude>0.57732</latitude>
    <longitude>-50.67833</longitude>
    <wikiDataId>Q368933</wikiDataId>
</row><row>
    <id>12798</id>
    <name>Laranjal do Jari</name>
    <state>
        <state_id>1999</state_id>
        <state_code>AP</state_code>
        <state_name>Amapá</state_name>
    </state>
    <country>
        <country_id>31</country_id>
        <country_code>BR</country_code>
        <country_name>Brazil</country_name>
    </country>
    <latitude>0.93828</latitude>
    <longitude>-53.22949</longitude>
    <wikiDataId>Q1117969</wikiDataId>
</row><row>
    <id>12887</id>
    <name>Macapá</name>
    <state>
        <state_id>1999</state_id>
        <state_code>AP</state_code>
        <state_name>Amapá</state_name>
    </state>
    <country>
        <country_id>31</country_id>
        <country_code>BR</country_code>
        <country_name>Brazil</country_name>
    </country>
    <latitude>0.03889</latitude>
    <longitude>-51.06639</longitude>
    <wikiDataId>Q180215</wikiDataId>
</row><row>
    <id>13088</id>
    <name>Mazagão</name>
    <state>
        <state_id>1999</state_id>
        <state_code>AP</state_code>
        <state_name>Amapá</state_name>
    </state>
    <country>
        <country_id>31</country_id>
        <country_code>BR</country_code>
        <country_name>Brazil</country_name>
    </country>
    <latitude>-0.115</latitude>
    <longitude>-51.28944</longitude>
    <wikiDataId>Q1800704</wikiDataId>
</row><row>
    <id>13492</id>
    <name>Oiapoque</name>
    <state>
        <state_id>1999</state_id>
        <state_code>AP</state_code>
        <state_name>Amapá</state_name>
    </state>
    <country>
        <country_id>31</country_id>
        <country_code>BR</country_code>
        <country_name>Brazil</country_name>
    </country>
    <latitude>2.70795</latitude>
    <longitude>-52.16963</longitude>
    <wikiDataId>Q2008580</wikiDataId>
</row><row>
    <id>13751</id>
    <name>Pedra Branca do Amapari</name>
    <state>
        <state_id>1999</state_id>
        <state_code>AP</state_code>
        <state_name>Amapá</state_name>
    </state>
    <country>
        <country_id>31</country_id>
        <country_code>BR</country_code>
        <country_name>Brazil</country_name>
    </country>
    <latitude>1.14843</latitude>
    <longitude>-52.40118</longitude>
    <wikiDataId>Q2342000</wikiDataId>
</row><row>
    <id>14008</id>
    <name>Porto Grande</name>
    <state>
        <state_id>1999</state_id>
        <state_code>AP</state_code>
        <state_name>Amapá</state_name>
    </state>
    <country>
        <country_id>31</country_id>
        <country_code>BR</country_code>
        <country_name>Brazil</country_name>
    </country>
    <latitude>0.56553</latitude>
    <longitude>-51.71181</longitude>
    <wikiDataId>Q2082418</wikiDataId>
</row><row>
    <id>14058</id>
    <name>Pracuúba</name>
    <state>
        <state_id>1999</state_id>
        <state_code>AP</state_code>
        <state_name>Amapá</state_name>
    </state>
    <country>
        <country_id>31</country_id>
        <country_code>BR</country_code>
        <country_name>Brazil</country_name>
    </country>
    <latitude>1.67076</latitude>
    <longitude>-51.2449</longitude>
    <wikiDataId>Q1793430</wikiDataId>
</row><row>
    <id>14568</id>
    <name>Santana</name>
    <state>
        <state_id>1999</state_id>
        <state_code>AP</state_code>
        <state_name>Amapá</state_name>
    </state>
    <country>
        <country_id>31</country_id>
        <country_code>BR</country_code>
        <country_name>Brazil</country_name>
    </country>
    <latitude>-0.05833</latitude>
    <longitude>-51.18167</longitude>
    <wikiDataId>Q1994845</wikiDataId>
</row><row>
    <id>14739</id>
    <name>Serra do Navio</name>
    <state>
        <state_id>1999</state_id>
        <state_code>AP</state_code>
        <state_name>Amapá</state_name>
    </state>
    <country>
        <country_id>31</country_id>
        <country_code>BR</country_code>
        <country_name>Brazil</country_name>
    </country>
    <latitude>1.65803</latitude>
    <longitude>-52.28195</longitude>
    <wikiDataId>Q1754911</wikiDataId>
</row><row>
    <id>15255</id>
    <name>Tartarugalzinho</name>
    <state>
        <state_id>1999</state_id>
        <state_code>AP</state_code>
        <state_name>Amapá</state_name>
    </state>
    <country>
        <country_id>31</country_id>
        <country_code>BR</country_code>
        <country_name>Brazil</country_name>
    </country>
    <latitude>1.263</latitude>
    <longitude>-51.10973</longitude>
    <wikiDataId>Q979910</wikiDataId>
</row><row>
    <id>15602</id>
    <name>Vitória do Jari</name>
    <state>
        <state_id>1999</state_id>
        <state_code>AP</state_code>
        <state_name>Amapá</state_name>
    </state>
    <country>
        <country_id>31</country_id>
        <country_code>BR</country_code>
        <country_name>Brazil</country_name>
    </country>
    <latitude>-0.95653</latitude>
    <longitude>-52.03443</longitude>
    <wikiDataId>Q1772675</wikiDataId>
</row><row>
    <id>10191</id>
    <name>Alvarães</name>
    <state>
        <state_id>2004</state_id>
        <state_code>AM</state_code>
        <state_name>Amazonas</state_name>
    </state>
    <country>
        <country_id>31</country_id>
        <country_code>BR</country_code>
        <country_name>Brazil</country_name>
    </country>
    <latitude>-3.22083</latitude>
    <longitude>-64.80417</longitude>
    <wikiDataId>Q1808573</wikiDataId>
</row><row>
    <id>10212</id>
    <name>Amaturá</name>
    <state>
        <state_id>2004</state_id>
        <state_code>AM</state_code>
        <state_name>Amazonas</state_name>
    </state>
    <country>
        <country_id>31</country_id>
        <country_code>BR</country_code>
        <country_name>Brazil</country_name>
    </country>
    <latitude>-3.38926</latitude>
    <longitude>-68.22698</longitude>
    <wikiDataId>Q1648060</wikiDataId>
</row><row>
    <id>10233</id>
    <name>Anamã</name>
    <state>
        <state_id>2004</state_id>
        <state_code>AM</state_code>
        <state_name>Amazonas</state_name>
    </state>
    <country>
        <country_id>31</country_id>
        <country_code>BR</country_code>
        <country_name>Brazil</country_name>
    </country>
    <latitude>-3.4799</latitude>
    <longitude>-61.71689</longitude>
    <wikiDataId>Q2013314</wikiDataId>
</row><row>
    <id>10266</id>
    <name>Anori</name>
    <state>
        <state_id>2004</state_id>
        <state_code>AM</state_code>
        <state_name>Amazonas</state_name>
    </state>
    <country>
        <country_id>31</country_id>
        <country_code>BR</country_code>
        <country_name>Brazil</country_name>
    </country>
    <latitude>-3.77278</latitude>
    <longitude>-61.64417</longitude>
    <wikiDataId>Q931090</wikiDataId>
</row><row>
    <id>10303</id>
    <name>Apuí</name>
    <state>
        <state_id>2004</state_id>
        <state_code>AM</state_code>
        <state_name>Amazonas</state_name>
    </state>
    <country>
        <country_id>31</country_id>
        <country_code>BR</country_code>
        <country_name>Brazil</country_name>
    </country>
    <latitude>-7.78922</latitude>
    <longitude>-59.34104</longitude>
    <wikiDataId>Q1638385</wikiDataId>
</row><row>
    <id>10436</id>
    <name>Atalaia do Norte</name>
    <state>
        <state_id>2004</state_id>
        <state_code>AM</state_code>
        <state_name>Amazonas</state_name>
    </state>
    <country>
        <country_id>31</country_id>
        <country_code>BR</country_code>
        <country_name>Brazil</country_name>
    </country>
    <latitude>-5.66448</latitude>
    <longitude>-71.82776</longitude>
    <wikiDataId>Q928274</wikiDataId>
</row><row>
    <id>10454</id>
    <name>Autazes</name>
    <state>
        <state_id>2004</state_id>
        <state_code>AM</state_code>
        <state_name>Amazonas</state_name>
    </state>
    <country>
        <country_id>31</country_id>
        <country_code>BR</country_code>
        <country_name>Brazil</country_name>
    </country>
    <latitude>-3.57972</latitude>
    <longitude>-59.13056</longitude>
    <wikiDataId>Q1772695</wikiDataId>
</row><row>
    <id>10513</id>
    <name>Barcelos</name>
    <state>
        <state_id>2004</state_id>
        <state_code>AM</state_code>
        <state_name>Amazonas</state_name>
    </state>
    <country>
        <country_id>31</country_id>
        <country_code>BR</country_code>
        <country_name>Brazil</country_name>
    </country>
    <latitude>-0.97357</latitude>
    <longitude>-62.9269</longitude>
    <wikiDataId>Q807939</wikiDataId>
</row><row>
    <id>10553</id>
    <name>Barreirinha</name>
    <state>
        <state_id>2004</state_id>
        <state_code>AM</state_code>
        <state_name>Amazonas</state_name>
    </state>
    <country>
        <country_id>31</country_id>
        <country_code>BR</country_code>
        <country_name>Brazil</country_name>
    </country>
    <latitude>-2.79333</latitude>
    <longitude>-57.07</longitude>
    <wikiDataId>Q1772565</wikiDataId>
</row><row>
    <id>10626</id>
    <name>Benjamin Constant</name>
    <state>
        <state_id>2004</state_id>
        <state_code>AM</state_code>
        <state_name>Amazonas</state_name>
    </state>
    <country>
        <country_id>31</country_id>
        <country_code>BR</country_code>
        <country_name>Brazil</country_name>
    </country>
    <latitude>-4.37555</latitude>
    <longitude>-70.03179</longitude>
    <wikiDataId>Q1767926</wikiDataId>
</row><row>
    <id>10641</id>
    <name>Beruri</name>
    <state>
        <state_id>2004</state_id>
        <state_code>AM</state_code>
        <state_name>Amazonas</state_name>
    </state>
    <country>
        <country_id>31</country_id>
        <country_code>BR</country_code>
        <country_name>Brazil</country_name>
    </country>
    <latitude>-4.34371</latitude>
    <longitude>-61.75126</longitude>
    <wikiDataId>Q828319</wikiDataId>
</row><row>
    <id>10674</id>
    <name>Boa Vista do Ramos</name>
    <state>
        <state_id>2004</state_id>
        <state_code>AM</state_code>
        <state_name>Amazonas</state_name>
    </state>
    <country>
        <country_id>31</country_id>
        <country_code>BR</country_code>
        <country_name>Brazil</country_name>
    </country>
    <latitude>-3.15779</latitude>
    <longitude>-57.90517</longitude>
    <wikiDataId>Q1803204</wikiDataId>
</row><row>
    <id>10678</id>
    <name>Boca do Acre</name>
    <state>
        <state_id>2004</state_id>
        <state_code>AM</state_code>
        <state_name>Amazonas</state_name>
    </state>
    <country>
        <country_id>31</country_id>
        <country_code>BR</country_code>
        <country_name>Brazil</country_name>
    </country>
    <latitude>-8.75222</latitude>
    <longitude>-67.39778</longitude>
    <wikiDataId>Q1793334</wikiDataId>
</row><row>
    <id>10749</id>
    <name>Borba</name>
    <state>
        <state_id>2004</state_id>
        <state_code>AM</state_code>
        <state_name>Amazonas</state_name>
    </state>
    <country>
        <country_id>31</country_id>
        <country_code>BR</country_code>
        <country_name>Brazil</country_name>
    </country>
    <latitude>-4.39143</latitude>
    <longitude>-59.58864</longitude>
    <wikiDataId>Q2089660</wikiDataId>
</row><row>
    <id>10841</id>
    <name>Caapiranga</name>
    <state>
        <state_id>2004</state_id>
        <state_code>AM</state_code>
        <state_name>Amazonas</state_name>
    </state>
    <country>
        <country_id>31</country_id>
        <country_code>BR</country_code>
        <country_name>Brazil</country_name>
    </country>
    <latitude>-3.12981</latitude>
    <longitude>-61.74406</longitude>
    <wikiDataId>Q1750436</wikiDataId>
</row><row>
    <id>11059</id>
    <name>Canutama</name>
    <state>
        <state_id>2004</state_id>
        <state_code>AM</state_code>
        <state_name>Amazonas</state_name>
    </state>
    <country>
        <country_id>31</country_id>
        <country_code>BR</country_code>
        <country_name>Brazil</country_name>
    </country>
    <latitude>-6.53389</latitude>
    <longitude>-64.38306</longitude>
    <wikiDataId>Q1807050</wikiDataId>
</row><row>
    <id>11111</id>
    <name>Carauari</name>
    <state>
        <state_id>2004</state_id>
        <state_code>AM</state_code>
        <state_name>Amazonas</state_name>
    </state>
    <country>
        <country_id>31</country_id>
        <country_code>BR</country_code>
        <country_name>Brazil</country_name>
    </country>
    <latitude>-4.88278</latitude>
    <longitude>-66.89583</longitude>
    <wikiDataId>Q1794236</wikiDataId>
</row><row>
    <id>11125</id>
    <name>Careiro</name>
    <state>
        <state_id>2004</state_id>
        <state_code>AM</state_code>
        <state_name>Amazonas</state_name>
    </state>
    <country>
        <country_id>31</country_id>
        <country_code>BR</country_code>
        <country_name>Brazil</country_name>
    </country>
    <latitude>-3.78706</latitude>
    <longitude>-60.3479</longitude>
    <wikiDataId>Q1649954</wikiDataId>
</row><row>
    <id>11126</id>
    <name>Careiro da Várzea</name>
    <state>
        <state_id>2004</state_id>
        <state_code>AM</state_code>
        <state_name>Amazonas</state_name>
    </state>
    <country>
        <country_id>31</country_id>
        <country_code>BR</country_code>
        <country_name>Brazil</country_name>
    </country>
    <latitude>-3.19695</latitude>
    <longitude>-59.82674</longitude>
    <wikiDataId>Q1807045</wikiDataId>
</row><row>
    <id>11304</id>
    <name>Coari</name>
    <state>
        <state_id>2004</state_id>
        <state_code>AM</state_code>
        <state_name>Amazonas</state_name>
    </state>
    <country>
        <country_id>31</country_id>
        <country_code>BR</country_code>
        <country_name>Brazil</country_name>
    </country>
    <latitude>-4.085</latitude>
    <longitude>-63.14139</longitude>
    <wikiDataId>Q645204</wikiDataId>
</row><row>
    <id>11313</id>
    <name>Codajás</name>
    <state>
        <state_id>2004</state_id>
        <state_code>AM</state_code>
        <state_name>Amazonas</state_name>
    </state>
    <country>
        <country_id>31</country_id>
        <country_code>BR</country_code>
        <country_name>Brazil</country_name>
    </country>
    <latitude>-3.83667</latitude>
    <longitude>-62.05694</longitude>
    <wikiDataId>Q1762074</wikiDataId>
</row><row>
    <id>11676</id>
    <name>Eirunepé</name>
    <state>
        <state_id>2004</state_id>
        <state_code>AM</state_code>
        <state_name>Amazonas</state_name>
    </state>
    <country>
        <country_id>31</country_id>
        <country_code>BR</country_code>
        <country_name>Brazil</country_name>
    </country>
    <latitude>-6.66028</latitude>
    <longitude>-69.87361</longitude>
    <wikiDataId>Q1646910</wikiDataId>
</row><row>
    <id>11711</id>
    <name>Envira</name>
    <state>
        <state_id>2004</state_id>
        <state_code>AM</state_code>
        <state_name>Amazonas</state_name>
    </state>
    <country>
        <country_id>31</country_id>
        <country_code>BR</country_code>
        <country_name>Brazil</country_name>
    </country>
    <latitude>-7.3</latitude>
    <longitude>-70.21667</longitude>
    <wikiDataId>Q22054061</wikiDataId>
</row><row>
    <id>11848</id>
    <name>Fonte Boa</name>
    <state>
        <state_id>2004</state_id>
        <state_code>AM</state_code>
        <state_name>Amazonas</state_name>
    </state>
    <country>
        <country_id>31</country_id>
        <country_code>BR</country_code>
        <country_name>Brazil</country_name>
    </country>
    <latitude>-2.51389</latitude>
    <longitude>-66.09167</longitude>
    <wikiDataId>Q1793768</wikiDataId>
</row><row>
    <id>12018</id>
    <name>Guajará</name>
    <state>
        <state_id>2004</state_id>
        <state_code>AM</state_code>
        <state_name>Amazonas</state_name>
    </state>
    <country>
        <country_id>31</country_id>
        <country_code>BR</country_code>
        <country_name>Brazil</country_name>
    </country>
    <latitude>-2.96667</latitude>
    <longitude>-57.66667</longitude>
    <wikiDataId>Q22020773</wikiDataId>
</row><row>
    <id>12110</id>
    <name>Humaitá</name>
    <state>
        <state_id>2004</state_id>
        <state_code>AM</state_code>
        <state_name>Amazonas</state_name>
    </state>
    <country>
        <country_id>31</country_id>
        <country_code>BR</country_code>
        <country_name>Brazil</country_name>
    </country>
    <latitude>-7.51651</latitude>
    <longitude>-63.03105</longitude>
    <wikiDataId>Q1025760</wikiDataId>
</row><row>
    <id>12281</id>
    <name>Ipixuna</name>
    <state>
        <state_id>2004</state_id>
        <state_code>AM</state_code>
        <state_name>Amazonas</state_name>
    </state>
    <country>
        <country_id>31</country_id>
        <country_code>BR</country_code>
        <country_name>Brazil</country_name>
    </country>
    <latitude>-7.1191</latitude>
    <longitude>-71.3759</longitude>
    <wikiDataId>Q2026825</wikiDataId>
</row><row>
    <id>12306</id>
    <name>Iranduba</name>
    <state>
        <state_id>2004</state_id>
        <state_code>AM</state_code>
        <state_name>Amazonas</state_name>
    </state>
    <country>
        <country_id>31</country_id>
        <country_code>BR</country_code>
        <country_name>Brazil</country_name>
    </country>
    <latitude>-3.28472</latitude>
    <longitude>-60.18611</longitude>
    <wikiDataId>Q1761947</wikiDataId>
</row><row>
    <id>12342</id>
    <name>Itacoatiara</name>
    <state>
        <state_id>2004</state_id>
        <state_code>AM</state_code>
        <state_name>Amazonas</state_name>
    </state>
    <country>
        <country_id>31</country_id>
        <country_code>BR</country_code>
        <country_name>Brazil</country_name>
    </country>
    <latitude>-3.13435</latitude>
    <longitude>-58.43353</longitude>
    <wikiDataId>Q1750426</wikiDataId>
</row><row>
    <id>12378</id>
    <name>Itamarati</name>
    <state>
        <state_id>2004</state_id>
        <state_code>AM</state_code>
        <state_name>Amazonas</state_name>
    </state>
    <country>
        <country_id>31</country_id>
        <country_code>BR</country_code>
        <country_name>Brazil</country_name>
    </country>
    <latitude>-6.76472</latitude>
    <longitude>-68.03926</longitude>
    <wikiDataId>Q1756622</wikiDataId>
</row><row>
    <id>12421</id>
    <name>Itapiranga</name>
    <state>
        <state_id>2004</state_id>
        <state_code>AM</state_code>
        <state_name>Amazonas</state_name>
    </state>
    <country>
        <country_id>31</country_id>
        <country_code>BR</country_code>
        <country_name>Brazil</country_name>
    </country>
    <latitude>-2.516</latitude>
    <longitude>-58.5573</longitude>
    <wikiDataId>Q1760028</wikiDataId>
</row><row>
    <id>12575</id>
    <name>Japurá</name>
    <state>
        <state_id>2004</state_id>
        <state_code>AM</state_code>
        <state_name>Amazonas</state_name>
    </state>
    <country>
        <country_id>31</country_id>
        <country_code>BR</country_code>
        <country_name>Brazil</country_name>
    </country>
    <latitude>-1.55349</latitude>
    <longitude>-68.24526</longitude>
    <wikiDataId>Q1112881</wikiDataId>
</row><row>
    <id>12703</id>
    <name>Juruá</name>
    <state>
        <state_id>2004</state_id>
        <state_code>AM</state_code>
        <state_name>Amazonas</state_name>
    </state>
    <country>
        <country_id>31</country_id>
        <country_code>BR</country_code>
        <country_name>Brazil</country_name>
    </country>
    <latitude>-3.27526</latitude>
    <longitude>-66.24211</longitude>
    <wikiDataId>Q1008242</wikiDataId>
</row><row>
    <id>12710</id>
    <name>Jutaí</name>
    <state>
        <state_id>2004</state_id>
        <state_code>AM</state_code>
        <state_name>Amazonas</state_name>
    </state>
    <country>
        <country_id>31</country_id>
        <country_code>BR</country_code>
        <country_name>Brazil</country_name>
    </country>
    <latitude>-5.18333</latitude>
    <longitude>-68.9</longitude>
    <wikiDataId>Q22054462</wikiDataId>
</row><row>
    <id>12883</id>
    <name>Lábrea</name>
    <state>
        <state_id>2004</state_id>
        <state_code>AM</state_code>
        <state_name>Amazonas</state_name>
    </state>
    <country>
        <country_id>31</country_id>
        <country_code>BR</country_code>
        <country_name>Brazil</country_name>
    </country>
    <latitude>-8.18437</latitude>
    <longitude>-66.075</longitude>
    <wikiDataId>Q386631</wikiDataId>
</row><row>
    <id>12936</id>
    <name>Manacapuru</name>
    <state>
        <state_id>2004</state_id>
        <state_code>AM</state_code>
        <state_name>Amazonas</state_name>
    </state>
    <country>
        <country_id>31</country_id>
        <country_code>BR</country_code>
        <country_name>Brazil</country_name>
    </country>
    <latitude>-3.29972</latitude>
    <longitude>-60.62056</longitude>
    <wikiDataId>Q983526</wikiDataId>
</row><row>
    <id>12937</id>
    <name>Manaquiri</name>
    <state>
        <state_id>2004</state_id>
        <state_code>AM</state_code>
        <state_name>Amazonas</state_name>
    </state>
    <country>
        <country_id>31</country_id>
        <country_code>BR</country_code>
        <country_name>Brazil</country_name>
    </country>
    <latitude>-3.31667</latitude>
    <longitude>-60.35</longitude>
    <wikiDataId>Q22054566</wikiDataId>
</row><row>
    <id>12939</id>
    <name>Manaus</name>
    <state>
        <state_id>2004</state_id>
        <state_code>AM</state_code>
        <state_name>Amazonas</state_name>
    </state>
    <country>
        <country_id>31</country_id>
        <country_code>BR</country_code>
        <country_name>Brazil</country_name>
    </country>
    <latitude>-3.04361</latitude>
    <longitude>-60.01282</longitude>
    <wikiDataId>Q40236</wikiDataId>
</row><row>
    <id>12951</id>
    <name>Manicoré</name>
    <state>
        <state_id>2004</state_id>
        <state_code>AM</state_code>
        <state_name>Amazonas</state_name>
    </state>
    <country>
        <country_id>31</country_id>
        <country_code>BR</country_code>
        <country_name>Brazil</country_name>
    </country>
    <latitude>-5.80917</latitude>
    <longitude>-61.30028</longitude>
    <wikiDataId>Q43490</wikiDataId>
</row><row>
    <id>12988</id>
    <name>Maraã</name>
    <state>
        <state_id>2004</state_id>
        <state_code>AM</state_code>
        <state_name>Amazonas</state_name>
    </state>
    <country>
        <country_id>31</country_id>
        <country_code>BR</country_code>
        <country_name>Brazil</country_name>
    </country>
    <latitude>-1.82403</latitude>
    <longitude>-65.35883</longitude>
    <wikiDataId>Q22054605</wikiDataId>
</row><row>
    <id>13085</id>
    <name>Maués</name>
    <state>
        <state_id>2004</state_id>
        <state_code>AM</state_code>
        <state_name>Amazonas</state_name>
    </state>
    <country>
        <country_id>31</country_id>
        <country_code>BR</country_code>
        <country_name>Brazil</country_name>
    </country>
    <latitude>-3.38361</latitude>
    <longitude>-57.71861</longitude>
    <wikiDataId>Q1808581</wikiDataId>
</row><row>
    <id>13321</id>
    <name>Nhamundá</name>
    <state>
        <state_id>2004</state_id>
        <state_code>AM</state_code>
        <state_name>Amazonas</state_name>
    </state>
    <country>
        <country_id>31</country_id>
        <country_code>BR</country_code>
        <country_name>Brazil</country_name>
    </country>
    <latitude>-2.18611</latitude>
    <longitude>-56.71306</longitude>
    <wikiDataId>Q1793306</wikiDataId>
</row><row>
    <id>13413</id>
    <name>Nova Olinda do Norte</name>
    <state>
        <state_id>2004</state_id>
        <state_code>AM</state_code>
        <state_name>Amazonas</state_name>
    </state>
    <country>
        <country_id>31</country_id>
        <country_code>BR</country_code>
        <country_name>Brazil</country_name>
    </country>
    <latitude>-3.89174</latitude>
    <longitude>-59.09542</longitude>
    <wikiDataId>Q1772535</wikiDataId>
</row><row>
    <id>13451</id>
    <name>Novo Airão</name>
    <state>
        <state_id>2004</state_id>
        <state_code>AM</state_code>
        <state_name>Amazonas</state_name>
    </state>
    <country>
        <country_id>31</country_id>
        <country_code>BR</country_code>
        <country_name>Brazil</country_name>
    </country>
    <latitude>-1.98386</latitude>
    <longitude>-61.78513</longitude>
    <wikiDataId>Q1750332</wikiDataId>
</row><row>
    <id>13453</id>
    <name>Novo Aripuanã</name>
    <state>
        <state_id>2004</state_id>
        <state_code>AM</state_code>
        <state_name>Amazonas</state_name>
    </state>
    <country>
        <country_id>31</country_id>
        <country_code>BR</country_code>
        <country_name>Brazil</country_name>
    </country>
    <latitude>-5.12056</latitude>
    <longitude>-60.37972</longitude>
    <wikiDataId>Q1793549</wikiDataId>
</row><row>
    <id>13672</id>
    <name>Parintins</name>
    <state>
        <state_id>2004</state_id>
        <state_code>AM</state_code>
        <state_name>Amazonas</state_name>
    </state>
    <country>
        <country_id>31</country_id>
        <country_code>BR</country_code>
        <country_name>Brazil</country_name>
    </country>
    <latitude>-2.62833</latitude>
    <longitude>-56.73583</longitude>
    <wikiDataId>Q926713</wikiDataId>
</row><row>
    <id>13720</id>
    <name>Pauini</name>
    <state>
        <state_id>2004</state_id>
        <state_code>AM</state_code>
        <state_name>Amazonas</state_name>
    </state>
    <country>
        <country_id>31</country_id>
        <country_code>BR</country_code>
        <country_name>Brazil</country_name>
    </country>
    <latitude>-7.71361</latitude>
    <longitude>-66.97639</longitude>
    <wikiDataId>Q1793494</wikiDataId>
</row><row>
    <id>14082</id>
    <name>Presidente Figueiredo</name>
    <state>
        <state_id>2004</state_id>
        <state_code>AM</state_code>
        <state_name>Amazonas</state_name>
    </state>
    <country>
        <country_id>31</country_id>
        <country_code>BR</country_code>
        <country_name>Brazil</country_name>
    </country>
    <latitude>-1.28344</latitude>
    <longitude>-59.98317</longitude>
    <wikiDataId>Q983495</wikiDataId>
</row><row>
    <id>14293</id>
    <name>Rio Preto da Eva</name>
    <state>
        <state_id>2004</state_id>
        <state_code>AM</state_code>
        <state_name>Amazonas</state_name>
    </state>
    <country>
        <country_id>31</country_id>
        <country_code>BR</country_code>
        <country_name>Brazil</country_name>
    </country>
    <latitude>-2.69795</latitude>
    <longitude>-59.70172</longitude>
    <wikiDataId>Q1793560</wikiDataId>
</row><row>
    <id>14483</id>
    <name>Santa Isabel do Rio Negro</name>
    <state>
        <state_id>2004</state_id>
        <state_code>AM</state_code>
        <state_name>Amazonas</state_name>
    </state>
    <country>
        <country_id>31</country_id>
        <country_code>BR</country_code>
        <country_name>Brazil</country_name>
    </country>
    <latitude>-0.41389</latitude>
    <longitude>-65.01917</longitude>
    <wikiDataId>Q1754543</wikiDataId>
</row><row>
    <id>14628</id>
    <name>Santo Antônio do Içá</name>
    <state>
        <state_id>2004</state_id>
        <state_code>AM</state_code>
        <state_name>Amazonas</state_name>
    </state>
    <country>
        <country_id>31</country_id>
        <country_code>BR</country_code>
        <country_name>Brazil</country_name>
    </country>
    <latitude>-3.10222</latitude>
    <longitude>-67.93972</longitude>
    <wikiDataId>Q970224</wikiDataId>
</row><row>
    <id>14909</id>
    <name>São Gabriel da Cachoeira</name>
    <state>
        <state_id>2004</state_id>
        <state_code>AM</state_code>
        <state_name>Amazonas</state_name>
    </state>
    <country>
        <country_id>31</country_id>
        <country_code>BR</country_code>
        <country_name>Brazil</country_name>
    </country>
    <latitude>-0.1181</latitude>
    <longitude>-67.08527</longitude>
    <wikiDataId>Q694840</wikiDataId>
</row><row>
    <id>15103</id>
    <name>São Paulo de Olivença</name>
    <state>
        <state_id>2004</state_id>
        <state_code>AM</state_code>
        <state_name>Amazonas</state_name>
    </state>
    <country>
        <country_id>31</country_id>
        <country_code>BR</country_code>
        <country_name>Brazil</country_name>
    </country>
    <latitude>-3.37833</latitude>
    <longitude>-68.8725</longitude>
    <wikiDataId>Q1794983</wikiDataId>
</row><row>
    <id>15153</id>
    <name>São Sebastião do Uatumã</name>
    <state>
        <state_id>2004</state_id>
        <state_code>AM</state_code>
        <state_name>Amazonas</state_name>
    </state>
    <country>
        <country_id>31</country_id>
        <country_code>BR</country_code>
        <country_name>Brazil</country_name>
    </country>
    <latitude>-1.93197</latitude>
    <longitude>-58.74216</longitude>
    <wikiDataId>Q1787301</wikiDataId>
</row><row>
    <id>14780</id>
    <name>Silves</name>
    <state>
        <state_id>2004</state_id>
        <state_code>AM</state_code>
        <state_name>Amazonas</state_name>
    </state>
    <country>
        <country_id>31</country_id>
        <country_code>BR</country_code>
        <country_name>Brazil</country_name>
    </country>
    <latitude>-2.76846</latitude>
    <longitude>-58.62751</longitude>
    <wikiDataId>Q1788659</wikiDataId>
</row><row>
    <id>15184</id>
    <name>Tabatinga</name>
    <state>
        <state_id>2004</state_id>
        <state_code>AM</state_code>
        <state_name>Amazonas</state_name>
    </state>
    <country>
        <country_id>31</country_id>
        <country_code>BR</country_code>
        <country_name>Brazil</country_name>
    </country>
    <latitude>-3.96298</latitude>
    <longitude>-69.60265</longitude>
    <wikiDataId>Q22060342</wikiDataId>
</row><row>
    <id>15225</id>
    <name>Tapauá</name>
    <state>
        <state_id>2004</state_id>
        <state_code>AM</state_code>
        <state_name>Amazonas</state_name>
    </state>
    <country>
        <country_id>31</country_id>
        <country_code>BR</country_code>
        <country_name>Brazil</country_name>
    </country>
    <latitude>-6.21423</latitude>
    <longitude>-65.69985</longitude>
    <wikiDataId>Q1787155</wikiDataId>
</row><row>
    <id>15264</id>
    <name>Tefé</name>
    <state>
        <state_id>2004</state_id>
        <state_code>AM</state_code>
        <state_name>Amazonas</state_name>
    </state>
    <country>
        <country_id>31</country_id>
        <country_code>BR</country_code>
        <country_name>Brazil</country_name>
    </country>
    <latitude>-3.36841</latitude>
    <longitude>-64.72054</longitude>
    <wikiDataId>Q975545</wikiDataId>
</row><row>
    <id>15336</id>
    <name>Tonantins</name>
    <state>
        <state_id>2004</state_id>
        <state_code>AM</state_code>
        <state_name>Amazonas</state_name>
    </state>
    <country>
        <country_id>31</country_id>
        <country_code>BR</country_code>
        <country_name>Brazil</country_name>
    </country>
    <latitude>-2.87306</latitude>
    <longitude>-67.80222</longitude>
    <wikiDataId>Q1793355</wikiDataId>
</row><row>
    <id>15423</id>
    <name>Uarini</name>
    <state>
        <state_id>2004</state_id>
        <state_code>AM</state_code>
        <state_name>Amazonas</state_name>
    </state>
    <country>
        <country_id>31</country_id>
        <country_code>BR</country_code>
        <country_name>Brazil</country_name>
    </country>
    <latitude>-3.14736</latitude>
    <longitude>-65.42036</longitude>
    <wikiDataId>Q517607</wikiDataId>
</row><row>
    <id>15475</id>
    <name>Urucará</name>
    <state>
        <state_id>2004</state_id>
        <state_code>AM</state_code>
        <state_name>Amazonas</state_name>
    </state>
    <country>
        <country_id>31</country_id>
        <country_code>BR</country_code>
        <country_name>Brazil</country_name>
    </country>
    <latitude>-2.53639</latitude>
    <longitude>-57.76</longitude>
    <wikiDataId>Q1816370</wikiDataId>
</row><row>
    <id>15477</id>
    <name>Urucurituba</name>
    <state>
        <state_id>2004</state_id>
        <state_code>AM</state_code>
        <state_name>Amazonas</state_name>
    </state>
    <country>
        <country_id>31</country_id>
        <country_code>BR</country_code>
        <country_name>Brazil</country_name>
    </country>
    <latitude>-3.12845</latitude>
    <longitude>-58.15856</longitude>
    <wikiDataId>Q22014945</wikiDataId>
</row><row>
    <id>10061</id>
    <name>Abaíra</name>
    <state>
        <state_id>2002</state_id>
        <state_code>BA</state_code>
        <state_name>Bahia</state_name>
    </state>
    <country>
        <country_id>31</country_id>
        <country_code>BR</country_code>
        <country_name>Brazil</country_name>
    </country>
    <latitude>-13.32129</latitude>
    <longitude>-41.69759</longitude>
    <wikiDataId>Q1645077</wikiDataId>
</row><row>
    <id>10059</id>
    <name>Abaré</name>
    <state>
        <state_id>2002</state_id>
        <state_code>BA</state_code>
        <state_name>Bahia</state_name>
    </state>
    <country>
        <country_id>31</country_id>
        <country_code>BR</country_code>
        <country_name>Brazil</country_name>
    </country>
    <latitude>-8.80961</latitude>
    <longitude>-39.27062</longitude>
    <wikiDataId>Q1647789</wikiDataId>
</row><row>
    <id>10069</id>
    <name>Acajutiba</name>
    <state>
        <state_id>2002</state_id>
        <state_code>BA</state_code>
        <state_name>Bahia</state_name>
    </state>
    <country>
        <country_id>31</country_id>
        <country_code>BR</country_code>
        <country_name>Brazil</country_name>
    </country>
    <latitude>-11.60682</latitude>
    <longitude>-38.03594</longitude>
    <wikiDataId>Q1761962</wikiDataId>
</row><row>
    <id>10084</id>
    <name>Adustina</name>
    <state>
        <state_id>2002</state_id>
        <state_code>BA</state_code>
        <state_name>Bahia</state_name>
    </state>
    <country>
        <country_id>31</country_id>
        <country_code>BR</country_code>
        <country_name>Brazil</country_name>
    </country>
    <latitude>-10.48227</latitude>
    <longitude>-37.98446</longitude>
